[{"lat": 31.0221796765, "distance": 815.2663802802108, "lon": 121.4397716262, "id": 1, "address": "\uff08A\u7c7b\uff09\u4ea4\u5927-\u667a\u80fd\u7535\u7f51\u697c"}, {"lat": 31.020612736, "distance": 906.2503787849272, "lon": 121.4270355466, "id": 4, "address": "\uff08A\u7c7b\uff09\u4ea4\u5927-\u6e38\u6cf3\u9986"}, {"lat": 31.0239943926, "distance": 650.4458684243115, "lon": 121.4391312004, "id": 6, "address": "\uff08A\u7c7b\uff09\u4ea4\u5927-\u5bc6\u897f\u6839\u5b66\u9662"}, {"lat": 31.0248415951, "distance": 829.7660384642496, "lon": 121.4415578204, "id": 7, "address": "\uff08A\u7c7b\uff09\u4ea4\u5927-\u7535\u9662"}, {"lat": 31.0272957536, "distance": 718.8932864560011, "lon": 121.4406944367, "id": 8, "address": "\uff08A\u7c7b\uff09\u4ea4\u5927-\u65b0\u884c\u653f\u697c"}, {"lat": 31.0298866635, "distance": 1035.2221265300705, "lon": 121.4434355571, "id": 9, "address": "\uff08A\u7c7b\uff09\u4ea4\u5927-\u751f\u547d\u79d1\u5b66\u9662"}, {"lat": 31.0289744587, "distance": 1220.9164816573464, "lon": 121.4457377852, "id": 10, "address": "\uff08A\u7c7b\uff09\u4ea4\u5927-\u7efc\u5408\u5b9e\u9a8c\u697c"}, {"lat": 31.0265666457, "distance": 1307.876025785018, "lon": 121.4468904708, "id": 11, "address": "\uff08A\u7c7b\uff09\u4ea4\u5927-\u673a\u52a8\u5b66\u9662"}, {"lat": 31.0240772074, "distance": 1358.7202110405738, "lon": 121.4470578565, "id": 12, "address": "\uff08A\u7c7b\uff09\u4ea4\u5927-\u7a7a\u5929\u5b66\u9662"}, {"lat": 31.0268419338, "distance": 0.0, "lon": 121.4331684297, "id": 13, "address": "\uff08A\u7c7b\uff09\u4ea4\u5927-\u7b2c\u4e09\u9910\u5385"}, {"lat": 31.187105101, "distance": 17827.34075115076, "lon": 121.427963052, "id": 14, "address": "\uff08C\u7c7b\uff09\u5357\u5b9c\u82b1\u82d1 \uff08\u5f85\u5b9a\uff09"}, {"lat": 31.2723863671, "distance": 27858.8404841129, "lon": 121.4913404049, "id": 15, "address": "\uff08C\u7c7b\uff09\u66f2\u9633\u5b9d\u83b2\u5927\u53a6"}, {"lat": 31.0260647613, "distance": 384.5806857437964, "lon": 121.4371012723, "id": 19, "address": "\uff08A\u7c7b\uff09\u4ea4\u5927-\u65b0\u56fe\u4e66\u9986"}, {"lat": 31.0293809499, "distance": 610.4624102348829, "lon": 121.4388488326, "id": 21, "address": "\uff08A\u7c7b\uff09\u4ea4\u5927-\u5c0f\u8f66\u961f"}, {"lat": 31.0239637129, "distance": 402.6111733658919, "lon": 121.430604917, "id": 22, "address": "\uff08A\u7c7b\uff09\u4ea4\u5927-\u5316\u5de5\u5b66\u9662"}, {"lat": 31.1814900452, "distance": 17443.704733925908, "lon": 121.4639297523, "id": 23, "address": "\uff08C\u7c7b\uff09\u5f90\u6c47\u6ee8\u6c5f"}, {"lat": 31.2005341262, "distance": 19314.605772305003, "lon": 121.4351434642, "id": 24, "address": "\uff08B\u7c7b\uff09\u5f90\u6c47\u4ea4\u5927(\u52ff\u505c\u5730\u4e0b\u8f66\u5e93)"}, {"lat": 31.0249531846, "distance": 584.0427864590565, "lon": 121.4274491136, "id": 28, "address": "\uff08A\u7c7b\uff09\u4ea4\u5927-\u674e\u8bc1\u9053\u56fe\u4e66\u9986"}, {"lat": 31.0228020307, "distance": 547.8769730301939, "lon": 121.4364599885, "id": 29, "address": "\uff08A\u7c7b\uff09\u4ea4\u5927-\u4e8c\u9910"}, {"lat": 31.1665373359, "distance": 15719.980906344597, "lon": 121.4585284644, "id": 30, "address": "\uff08C\u7c7b\uff0911\u53f7\u7ebf\u4e91\u9526\u8def\u5730\u94c1\u7ad9"}, {"lat": 31.1785579186, "distance": 16902.208629675075, "lon": 121.4222222633, "id": 32, "address": "\uff08C\u7c7b\uff09\u5f90\u6c47-\u7b2c\u516d\u4eba\u6c11\u533b\u9662\u70b9"}, {"lat": 31.024879875, "distance": 1055.0763540894911, "lon": 121.422335103, "id": 34, "address": "\uff08C\u7c7b\uff09\u96f6\u53f7\u6e7e"}, {"lat": 31.0146515698, "distance": 1854.6889877801264, "lon": 121.4198841098, "id": 35, "address": "\uff08C\u7c7b\uff09\u6b27\u5c1a\u8d85\u5e02"}, {"lat": 31.038560547, "distance": 1791.9373297252123, "lon": 121.4460786059, "id": 36, "address": "\uff08B\u7c7b\uff09\u4e07\u4e50\u57ce"}, {"lat": 31.0292135494, "distance": 265.10891129501675, "lon": 121.4328831477, "id": 38, "address": "\uff08A\u7c7b\uff09\u4ea4\u5927-\u5b66\u751f\u670d\u52a1\u4e2d\u5fc3"}, {"lat": 31.0275373072, "distance": 759.2974720568541, "lon": 121.4252411954, "id": 40, "address": "\uff08A\u7c7b\uff09\u4ea4\u5927-\u5317\u4e00\u95e8"}, {"lat": 31.3236408818, "distance": 33030.045762436624, "lon": 121.4473349776, "id": 41, "address": "\u5b9d\u5c71\u4e07\u8fbe-\u6d4b\u8bd5"}, {"lat": 31.2135287525, "distance": 24081.31206398699, "lon": 121.3049425677, "id": 42, "address": "\uff08A\u7c7b\uff09\u8679\u6865\u673a\u573a\u6362\u4e58\u70b9-\u7231\u535a\u56db\u6751\uff08\u8f66\u5e93\u529e\u516c\u5ba4\u53d6\u5238\u514d\u8d39\u505c\u8f66\uff09"}, {"lat": 31.0069101302, "distance": 3557.18989038439, "lon": 121.4039712994, "id": 44, "address": "\uff08C\u7c7b\uff09\u78a7\u6c5f\u5e7f\u573a"}, {"lat": 31.0224298124, "distance": 723.9115844796383, "lon": 121.4275821005, "id": 45, "address": "\uff08A\u7c7b\uff09\u4ea4\u5927-\u6750\u6599\u5b66\u9662"}, {"lat": 31.0116615006, "distance": 1702.7501335271595, "lon": 121.4308205751, "id": 47, "address": "\uff08c\u7c7b\uff09\u5fb7\u5b8f\u8def\u3001\u6ca7\u6e90\u8def"}, {"lat": 31.0374475497, "distance": 2957.2848587819144, "lon": 121.4616314889, "id": 48, "address": "\uff08c\u7c7b\uff09\u5251\u5ddd\u8def\u3001\u8679\u6885\u5357\u8def"}, {"lat": 31.0607046904, "distance": 8493.984326983176, "lon": 121.5130873905, "id": 49, "address": "\uff08A\u7c7b\uff09\u6c88\u675c\u516c\u8def"}, {"lat": 31.0280179569, "distance": 1211.4893507784325, "lon": 121.4205283679, "id": 50, "address": "\uff08C\u7c7b\uff09\u6ca7\u6e90\u79d1\u6280\u56ed"}, {"lat": 30.8913612689, "distance": 42117.69431172225, "lon": 121.0206889521, "id": 51, "address": "\uff08C\u7c7b\uff09\u67ab\u6770\u8def51\u53f7"}, {"lat": 30.922450466, "distance": 41286.90373222903, "lon": 121.0175776776, "id": 52, "address": "\uff08C\u7c7b\uff09\u6731\u67ab\u516c\u8def8258\u5f04"}, {"lat": 31.2999882418, "distance": 35649.0578355176, "lon": 121.6293308794, "id": 53, "address": "(A\u7c7b\uff09\u5916\u9ad8\u6865-\u56fd\u9645\u673a\u5e8a\u5c55\u793a\u8d38\u6613\u4e2d\u5fc3"}, {"lat": 31.0968443341, "distance": 7784.740667632356, "lon": 121.4343610671, "id": 55, "address": "\uff08A\u7c7b\uff09\u7eff\u4eae\u79d1\u521b\u56ed"}, {"lat": 30.9054292725, "distance": 49438.798581853574, "lon": 121.9319789589, "id": 58, "address": "\uff08B\u7c7b\uff09\u6ef4\u6c34\u6e561\u53f7\u7801\u5934"}, {"lat": 31.1780222873, "distance": 16810.73550288618, "lon": 121.4322109374, "id": 59, "address": "\uff08C\u7c7b\uff09\u5b9c\u5bb6\u5bb6\u5c45\u534e\u77f3\u8def\u505c\u8f66\u70b9"}, {"lat": 31.155370444, "distance": 18461.769054503966, "lon": 121.555902398, "id": 60, "address": "\uff08C\u7c7b\uff09\u4e07\u90a6\u65b0\u80fd\u6e90"}, {"lat": 31.184038952, "distance": 17496.0784604197, "lon": 121.4251729846, "id": 62, "address": "\uff08A\u7c7b\uff09\u5bb6\u9970\u4f73"}, {"lat": 31.0174495771, "distance": 1061.4115704889161, "lon": 121.431181169, "id": 63, "address": "\uff08A\u7c7b\uff09\u4ea4\u5927-\u601d\u6e90\u95e8"}, {"lat": 31.1437031359, "distance": 14793.582589592499, "lon": 121.3589164869, "id": 64, "address": "\uff08B\u6d4b\uff09\u4e0a\u6d77\u4f17\u851a\u65b0\u80fd\u6e90\u6c7d\u8f66\u9500\u552e\u4f53\u9a8c\u4e2d\u5fc3"}, {"lat": 31.0212944339, "distance": 622.1237592166289, "lon": 121.432320436, "id": 65, "address": "\uff08A\u7c7b\uff09\u4ea4\u5927-\u7b2c\u4e00\u9910\u5385"}, {"lat": 31.3066802583, "distance": 35878.42841535146, "lon": 121.6208927221, "id": 67, "address": "(C\u7c7b)\u5916\u9ad8\u6865-\u7231\u5c14\u601d\u7269\u6d41\u6709\u9650\u516c\u53f8"}, {"lat": 31.3088892046, "distance": 36091.52754130918, "lon": 121.6208921098, "id": 68, "address": "\uff08C\u7c7b\uff09\u5916\u9ad8\u6865-D7/D6\u5de5\u4e1a\u56ed\u533a\u8def\u8fb9\u505c\u8f66\u4f4d"}, {"lat": 31.3201851203, "distance": 36781.255092751024, "lon": 121.6118270278, "id": 69, "address": "\uff08C\u7c7b\uff09\u5916\u9ad8\u6865-\u6c99\u4f2f\u57fa\u7840\u521b\u65b0\u5851\u6599\u516c\u53f8"}, {"lat": 31.3212810331, "distance": 37005.39827159485, "lon": 121.6144598011, "id": 70, "address": "\uff08C\u7c7b\uff09\u5916\u9ad8\u6865-\u8f66\u7ba1\u6240"}, {"lat": 31.3225336629, "distance": 37266.74946662279, "lon": 121.6175641974, "id": 71, "address": "\uff08C\u7c7b\uff09\u5916\u9ad8\u6865-\u4f0a\u987f\u76db\u4e16\u8fbe"}, {"lat": 31.3235224687, "distance": 37197.9456053571, "lon": 121.6138225994, "id": 72, "address": "\uff08C\u7c7b\uff09\u5916\u9ad8\u6865-\u514b\u745e\u65af\u6258\u8d38\u6613\u516c\u53f8"}, {"lat": 31.3221138674, "distance": 36916.408552723464, "lon": 121.6105639012, "id": 73, "address": "\uff08C\u7c7b\uff09\u5916\u9ad8\u6865-\u534e\u4eac\u8def\u8def\u8fb9\u505c\u8f66"}, {"lat": 31.3199714643, "distance": 36463.79644181066, "lon": 121.6049853783, "id": 75, "address": "\uff08C\u7c7b\uff09\u5916\u9ad8\u6865-\u8bc1\u5238\u6280\u672f\u5927\u53a6"}, {"lat": 31.3208566795, "distance": 36613.92641452892, "lon": 121.6064412187, "id": 76, "address": "\uff08C\u7c7b\uff09\u5916\u9ad8\u6865-\u4e09\u8054\u5927\u53a6"}, {"lat": 31.3247448089, "distance": 37169.981948515175, "lon": 121.6104076368, "id": 77, "address": "\uff08C\u7c7b\uff09\u5916\u9ad8\u6865-\u5609\u91cc\u5916\u9ad8\u6865\u7269\u6d41\u4e2d\u5fc3"}, {"lat": 31.3275567951, "distance": 37145.20975961491, "lon": 121.6032027197, "id": 78, "address": "\uff08C\u7c7b\uff09\u5916\u9ad8\u6865-F24\u56ed\u533a"}, {"lat": 31.3354532995, "distance": 38008.62835024115, "lon": 121.6049547011, "id": 79, "address": "\uff08C\u7c7b\uff09\u5916\u9ad8\u6865-\u8d1d\u4eb2\u7ba1\u7406\u516c\u53f8"}, {"lat": 31.3364827265, "distance": 38148.952994397536, "lon": 121.605859445, "id": 80, "address": "\uff08C\u7c7b\uff09\u5916\u9ad8\u6865-\u6d77\u9876\u56fd\u9645"}, {"lat": 31.3340309716, "distance": 37692.28859556171, "lon": 121.6006814549, "id": 81, "address": "\uff08C\u7c7b\uff09\u5916\u9ad8\u6865-\u534e\u4fe1\u5927\u53a6"}, {"lat": 31.3354456499, "distance": 37659.5888481844, "lon": 121.596259105, "id": 82, "address": "\uff08C\u7c7b\uff09\u5916\u9ad8\u6865-\u4e2d\u822a\u6750\u5927\u53a6"}, {"lat": 31.3375577019, "distance": 38065.36261787922, "lon": 121.601119092, "id": 83, "address": "\uff08C\u7c7b\uff09\u5916\u9ad8\u6865-\u7f8e\u76db\u8def175\u53f7"}, {"lat": 31.3430753844, "distance": 38476.592009908476, "lon": 121.5973659305, "id": 84, "address": "\uff08C\u7c7b\uff09\u5916\u9ad8\u6865-\u9752\u5e74\u516c\u5bd3"}, {"lat": 31.346390175, "distance": 38776.41885675084, "lon": 121.5963916812, "id": 85, "address": "\uff08C\u7c7b\uff09\u5916\u9ad8\u6865-\u8bda\u4fe1\u56fd\u9645\u5927\u53a6"}, {"lat": 31.3448762812, "distance": 38486.18681497092, "lon": 121.5927998609, "id": 87, "address": "\uff08C\u7c7b\uff09\u5916\u9ad8\u6865-\u70df\u8349\u516c\u53f8"}, {"lat": 31.3440962116, "distance": 38334.16205789595, "lon": 121.5908660018, "id": 88, "address": "\uff08C\u7c7b\uff09\u5916\u9ad8\u6865-\u91d1\u6e2f\u5927\u53a6"}, {"lat": 31.347286867, "distance": 38598.934079623185, "lon": 121.5891821082, "id": 89, "address": "\uff08C\u7c7b\uff09\u5916\u9ad8\u6865-\u83f2\u62c9\u8def\u516c\u5171\u7eff\u5730\u7532"}, {"lat": 31.3479051118, "distance": 38736.26493075347, "lon": 121.5911943765, "id": 90, "address": "\uff08C\u7c7b\uff09\u5916\u9ad8\u6865-\u83f2\u62c9\u8def\u516c\u5171\u7eff\u5730\u4e59"}, {"lat": 31.3482510617, "distance": 38691.246569287636, "lon": 121.5889996593, "id": 92, "address": "\uff08C\u7c7b\uff09\u5916\u9ad8\u6865-\u4e1c\u65b9\u4e45\u4fe1\u96c6\u56e2"}, {"lat": 31.3485118407, "distance": 38665.82394277599, "lon": 121.5875606184, "id": 93, "address": "\uff08C\u7c7b\uff09\u5916\u9ad8\u6865-\u5bcc\u8c6a\u4f1a\u5c55\u516c\u5bd3\u9152\u5e97"}, {"lat": 31.3490250668, "distance": 38861.29194817115, "lon": 121.5914728681, "id": 94, "address": "\uff08C\u7c7b\uff09\u5916\u9ad8\u6865-\u6c47\u4e30\u94f6\u884c"}, {"lat": 31.346839492, "distance": 38728.802230952475, "lon": 121.5939212192, "id": 96, "address": "\uff08C\u7c7b\uff09\u5916\u9ad8\u6865-\u7c73\u8fbe\u56fd\u9645"}, {"lat": 31.3122262619, "distance": 35711.9002735713, "lon": 121.6053419516, "id": 98, "address": "\uff08C\u7c7b\uff09\u5916\u9ad8\u6865\u6d77\u5173"}, {"lat": 31.1694975101, "distance": 18063.780150537154, "lon": 121.3424080312, "id": 101, "address": "\uff08C\u7c7b\uff09\u6c38\u8fbe\u65b0\u80fd\u6e90"}, {"lat": 31.3355312663, "distance": 37826.73786173064, "lon": 121.6002630161, "id": 102, "address": "\uff08C\u7c7b\uff09\u5916\u9ad8\u6865-\u56fd\u9645\u5546\u54c1\u4e2d\u5fc3"}, {"lat": 31.317720867, "distance": 36266.74421590446, "lon": 121.6055993637, "id": 103, "address": "\uff08\u5185\u90e8\u9650\u5236\uff09\u5916\u9ad8\u6865\u56fd\u8d38\u8fd0\u8425\u4e2d\u5fc3"}, {"lat": 31.1529411925, "distance": 17880.457498295928, "lon": 121.5496879249, "id": 104, "address": "\uff08C\u5fa1\u68652\uff09\u53d6\u8fd8\u8f66\u70b9"}, {"lat": 31.3172209423, "distance": 36341.38388961143, "lon": 121.6084622644, "id": 105, "address": "\uff08C\u7c7b\uff09\u667a\u884c\u5bb6\u4e13\u7528\u7f51\u70b9"}, {"lat": 31.1794722056, "distance": 17369.02247344089, "lon": 121.4719647332, "id": 106, "address": "\uff08C\u7c7b\uff09\u65af\u6c49\u79df\u8f66"}, {"lat": 31.3585848751, "distance": 36903.92237124114, "lon": 121.4218200877, "id": 107, "address": "\uff08\u6d4b\u8bd5\uff09\u6c34\u4ea7\u897f\u8def"}, {"lat": 31.3423192237, "distance": 38476.52341638366, "lon": 121.5993390832, "id": 108, "address": "\uff08C\u7c7b\uff09\u5916\u9ad8\u68656\u53f7\u533a"}, {"lat": 31.02813518, "distance": 504.94439365539847, "lon": 121.4280885749, "id": 109, "address": "\uff08A\u7c7b\uff09\u4ea4\u5927\u535a\u58eb\u697c"}, {"lat": 30.876084034, "distance": 48032.160675934625, "lon": 121.9051844321, "id": 110, "address": "\uff08C\u7c7b\uff09\u6ef4\u6c34\u6e56-\u6d77\u4e8b\u5927\u5b66\u4e34\u6e2f\u6821\u533a"}, {"lat": 30.9026873248, "distance": 48745.08383068026, "lon": 121.9234713934, "id": 113, "address": "\uff08B\u7c7b\uff09\u6ef4\u6c34\u6e56-\u9526\u6c5f\u4e4b\u661f"}, {"lat": 31.1499569975, "distance": 17844.27343562475, "lon": 121.3129690261, "id": 114, "address": "\uff08C\u7c7b\uff09\u4e94\u6d32\u4e91\u666f\u82b1\u82d1"}, {"lat": 31.3358921564, "distance": 37986.13986570819, "lon": 121.603319758, "id": 115, "address": "\uff08C\u7c7b\uff09\u5916\u9ad8\u6865-\u7231\u4e45\u9a6c\u672f\u4ff1\u4e50\u90e8"}, {"lat": 31.332285505, "distance": 37495.771946505316, "lon": 121.6001665305, "id": 116, "address": "\uff08C\u7c7b\uff09\u5916\u9ad8\u6865\u5916\u8054\u53d1-D9\u5de5\u4e1a\u56ed\u533a"}, {"lat": 31.3332507337, "distance": 37781.05283948627, "lon": 121.6047921683, "id": 117, "address": "\uff08C\u7c7b\uff09\u5916\u9ad8\u6865-\u5170\u5b9d\u5927\u53a6"}, {"lat": 31.3283332072, "distance": 37543.46426539574, "lon": 121.6108189112, "id": 118, "address": "\uff08C\u7c7b\uff09\u5916\u9ad8\u6865-\u516d\u53f7\u95e8\u5546\u5e97"}, {"lat": 31.0490796533, "distance": 5586.010361829019, "lon": 121.3805950956, "id": 120, "address": "\uff08C\u4e34\uff09\u534e\u5b81\u8def2931-for interview"}, {"lat": 31.0584604031, "distance": 22042.13585826284, "lon": 121.2047655645, "id": 121, "address": "\uff08C\u7c7b\uff09\u5de5\u7a0b\u6280\u672f\u5927\u5b66\u677e\u6c5f\u6821\u533a"}, {"lat": 31.1864479421, "distance": 17835.28442284441, "lon": 121.4145918808, "id": 127, "address": "\uff08C\u7c7b\uff09\u9526\u6c5f\u4e4b\u661f\u5434\u4e2d\u8def\u5e97"}, {"lat": 31.361543293, "distance": 37363.927855634, "lon": 121.3983774076, "id": 128, "address": "\uff08\u5185\u90e8\u9650\u5236\uff09\u5b9d\u837b\u8def\u4e34\u65f6\u8fd8\u8f66"}, {"lat": 30.9070347328, "distance": 48946.01257633831, "lon": 121.9271417765, "id": 130, "address": "\uff08C\u7c7b\uff09\u6ef4\u6c34\u6e56-\u6d66\u4e1c\u65b0\u533a\u4e91\u9e43\u8def/\u77f3\u677e\u8def\u8def\u53e3\u505c\u8f66\u573a"}, {"lat": 30.9007394542, "distance": 49005.128008747284, "lon": 121.925636835, "id": 131, "address": "\uff08C\u7c7b\uff09\u6ef4\u6c34\u6e56-\u4e0a\u6d77\u4e34\u6e2f\u65b0\u57ce\u5c55\u793a\u4e2d\u5fc3"}, {"lat": 30.879682143, "distance": 48542.05161074819, "lon": 121.9124180528, "id": 132, "address": "\uff08C\u7c7b\uff09\u6ef4\u6c34\u6e56-\u519c\u5de5\u5546\u8d85\u5e02"}, {"lat": 30.8847733287, "distance": 48923.84615698191, "lon": 121.9187476173, "id": 133, "address": "\uff08C\u7c7b\uff09\u6ef4\u6c34\u6e56-\u53e4\u68d5\u8def\u793e\u533a\u536b\u751f\u670d\u52a1\u7ad9"}, {"lat": 30.8819755837, "distance": 48820.427287235616, "lon": 121.9164664949, "id": 134, "address": "\uff08C\u7c7b\uff09\u6ef4\u6c34\u6e56-\u4e34\u6e2f\u65b0\u57ce\u6d77\u97f3\u5e7c\u513f\u56ed\u5357\u56ed\u90e8"}, {"lat": 30.8837134457, "distance": 48825.468035934144, "lon": 121.9172303568, "id": 135, "address": "\uff08C\u7c7b\uff09\u6ef4\u6c34\u6e56-\u6ef4\u6c34\u6e7e\u65f6\u5c1a\u9152\u5e97"}, {"lat": 31.1032791678, "distance": 16538.791033776008, "lon": 121.2842121968, "id": 136, "address": "\uff08C \u7c7b\uff09\u677e\u6c5f\u533a\u6cd7\u7816\u516c\u8def114\u53f7\u8f66\u4e4b\u97f3"}, {"lat": 30.8827437183, "distance": 46962.97835962662, "lon": 121.8961100737, "id": 137, "address": "\uff08C\u7c7b\uff09\u6ef4\u6c34\u6e56-\u4e0a\u6d77\u6d77\u6d0b\u5927\u5b66\u4e34\u6e2f\u65b0\u57ce\u6821\u533a"}, {"lat": 30.8831687088, "distance": 48878.007334165166, "lon": 121.9175925272, "id": 138, "address": "\uff08C\u7c7b\uff09\u6ef4\u6c34\u6e56-\u53e4\u68d5\u8def\u83dc\u5e02\u573a"}, {"lat": 30.8969821338, "distance": 48578.9297024343, "lon": 121.9196179953, "id": 139, "address": "\uff08C\u7c7b\uff09\u6ef4\u6c34\u6e56-\u4e2d\u56fd\u822a\u6d77\u535a\u7269\u9986"}, {"lat": 30.884031243, "distance": 48896.16176167112, "lon": 121.9181426907, "id": 140, "address": "\uff08C\u7c7b\uff09\u6ef4\u6c34\u6e56-\u5b9c\u4f73\u679c\u4e1a\uff08\u53e4\u68d5\u8def\u9a6c\u6a31\u4e39\u8def\u4ea4\u53c9\u53e3\uff09"}, {"lat": 30.8858817798, "distance": 49266.82555051016, "lon": 121.9229849573, "id": 141, "address": "\uff08C\u7c7b\uff09\u6ef4\u6c34\u6e56-\u4e0a\u6d77\u4ea4\u901a\u5927\u5b66\u9644\u5c5e\u7b2c\u516d\u4eba\u6c11\u533b\u9662\uff08\u4e34\u6e2f\u5730\u533a\uff09"}, {"lat": 30.8960887814, "distance": 48315.43255196453, "lon": 121.9163931942, "id": 143, "address": "\uff08C\u7c7b\uff09\u6ef4\u6c34\u6e56-\u6d66\u4e1c\u65b0\u533a\u5730\u7a0e\u5c40\u4e34\u6e2f\u5206\u5c40"}, {"lat": 30.9009517219, "distance": 48769.09736279347, "lon": 121.9231275992, "id": 144, "address": "\uff08C\u7c7b\uff09\u6ef4\u6c34\u6e56-\u6960\u6728\u8def"}, {"lat": 30.8950690378, "distance": 49229.641190116934, "lon": 121.9260659524, "id": 145, "address": "\uff08C\u7c7b\uff09\u6ef4\u6c34\u6e56-\u4e34\u6e2f\u57ce\u6295\u5927\u53a6"}, {"lat": 30.8963456415, "distance": 48300.03925528815, "lon": 121.9163190056, "id": 146, "address": "\uff08C\u7c7b\uff09\u6ef4\u6c34\u6e56-\u5357\u6c47\u65b0\u57ce\u9547\u56fd\u7a0e\u5c40\u4e34\u6e2f\u7a0e\u52a1\u5206\u5c40"}, {"lat": 30.9009875618, "distance": 48484.111555077594, "lon": 121.920019286, "id": 147, "address": "\uff08C\u7c7b\uff09\u6ef4\u6c34\u6e56-\u5357\u6c47\u65b0\u57ce\u9547\u653f\u5e9c\u5317"}, {"lat": 30.8936041234, "distance": 47821.51576698769, "lon": 121.9100180459, "id": 148, "address": "\uff08C\u7c7b\uff09\u6ef4\u6c34\u6e56\u99a8\u82d1"}, {"lat": 30.8762864813, "distance": 46256.67086098514, "lon": 121.8853555303, "id": 149, "address": "\uff08C\u7c7b\uff09\u6ef4\u6c34\u6e56-\u4e0a\u6d77\u6df1\u6c34\u6e2f\u5546\u52a1\u5e7f\u573a"}, {"lat": 30.888976654, "distance": 45574.17790215354, "lon": 121.8832623329, "id": 150, "address": "\uff08C\u7c7b\uff09\u6ef4\u6c34\u6e56-\u4e0a\u6d77\u7535\u673a\u5b66\u9662\u4e34\u6e2f\u6821\u533a\u5317"}, {"lat": 30.9005677638, "distance": 47679.05941447458, "lon": 121.9110422717, "id": 151, "address": "\uff08C\u7c7b\uff09\u6ef4\u6c34\u6e56-\u7af9\u4f2f\u8def\u5b9c\u6d69\u4f73\u56ed"}, {"lat": 30.9129512931, "distance": 47647.347697040124, "lon": 121.9149419617, "id": 152, "address": "\uff08C\u7c7b\uff09\u6ef4\u6c34\u6e56-\u5b9c\u6d69\u6b27\u666f"}, {"lat": 30.9130185113, "distance": 47153.06934375463, "lon": 121.9095841696, "id": 153, "address": "\uff08C\u7c7b\uff09\u6ef4\u6c34\u6e56-\u675e\u9752\u8def/\u94c3\u5170\u8def"}, {"lat": 30.9096983275, "distance": 48389.09116764227, "lon": 121.9219544368, "id": 155, "address": "\uff08C\u7c7b\uff09\u6ef4\u6c34\u6e56-\u73af\u6e56\u897f\u4e09\u8def\u53a6\u680e\u8def"}, {"lat": 30.8936152116, "distance": 52024.30097326519, "lon": 121.9561820293, "id": 156, "address": "\uff08C\u7c7b\uff09\u6ef4\u6c34\u6e56-\u5e06\u8239\u4ff1\u4e50\u90e8\u4e8c\u53f7\u7801\u5934 \u73af\u6e56\u4e1c\u4e00\u8def"}, {"lat": 30.9032889886, "distance": 49069.27558906595, "lon": 121.9272223656, "id": 157, "address": "\uff08C\u7c7b\uff09\u6ef4\u6c34\u6e56-\u4e34\u6e2f\u6e2f\u57ce\u5927\u53a6"}, {"lat": 30.8922539913, "distance": 46366.87357366782, "lon": 121.8934091923, "id": 158, "address": "\uff08C\u7c7b\uff09\u6ef4\u6c34\u6e56-\u4e0a\u6d77\u5efa\u6865\u5b66\u9662\u4e34\u6e2f\u6821\u533a"}, {"lat": 30.8823680552, "distance": 53964.06852838005, "lon": 121.9734219447, "id": 159, "address": "\uff08C\u7c7b\uff09\u6ef4\u6c34\u6e56-\u5357\u6c47\u5634\u89c2\u6d77\u516c\u56ed \u6ee8\u6d77\u65c5\u6e38\u5ea6\u5047\u533a"}, {"lat": 30.898552724, "distance": 49129.24762825371, "lon": 121.9262229858, "id": 160, "address": "(C\u7c7b)\u6ef4\u6c34\u6e56\u65c5\u6e38\u54a8\u8be2\u670d\u52a1\u4e2d\u5fc3"}, {"lat": 30.9072575808, "distance": 38853.50918151949, "lon": 121.8160629308, "id": 162, "address": "(C\u7c7b)\u6ef4\u6c34\u6e56-\u4e34\u6e2f\u5b9d\u9f99\u57ce\u5e02\u5e7f\u573a"}, {"lat": 30.9092847626, "distance": 39179.5614635591, "lon": 121.8205493561, "id": 163, "address": "\uff08C\u7c7b\uff09\u6ef4\u6c34\u6e56-\u9e3f\u97f3\u5e7f\u573a"}, {"lat": 31.3146314902, "distance": 37090.690917150256, "lon": 121.6302743329, "id": 164, "address": "\uff08C\u7c7b\uff09\u5916\u9ad8\u6865-\u6768\u56ed\u4e09\u6751"}, {"lat": 31.3350877205, "distance": 38069.4084406118, "lon": 121.2590148887, "id": 165, "address": "\uff08C\u7c7b\uff09\u745e\u91d1\u533b\u9662\u5317\u9662"}, {"lat": 31.3280647014, "distance": 37474.84395832151, "lon": 121.2564995027, "id": 166, "address": "\uff08C\u7c7b\uff09\u5609\u5b9a\u2014\u7eff\u5730\u5609\u57df\u751f\u6d3b\u4e2d\u5fc3"}, {"lat": 31.3265194557, "distance": 37268.46055920797, "lon": 121.2577389035, "id": 167, "address": "\uff08C\u7c7b\uff09\u5609\u5b9a\u2014\u7eff\u5730\u9890\u666f\u5609\u56ed"}, {"lat": 30.8974786814, "distance": 49516.5459787986, "lon": 121.9300848811, "id": 168, "address": "\uff08C\u7c7b\uff09\u6ef4\u6c34\u6e56- \u73af\u6e56\u897f\u4e00\u8def \u897f\u5c9b"}, {"lat": 30.8559323915, "distance": 38494.01265920227, "lon": 121.784173804, "id": 169, "address": "\uff08C\u7c7b\uff09\u6ef4\u6c34\u6e56-\u6d66\u4e1c\u65b0\u533a\u5357\u6c47\u65b0\u57ce\u9547\u82a6\u6f6e\u6e2f\u519c\u573a\uff08\u6ca7\u6d77\u8def\u5357\uff09"}, {"lat": 31.337101804, "distance": 34578.740261993866, "lon": 121.4577895867, "id": 170, "address": "\uff08C\u7c7b\uff09\u5b9d\u5c71\u533a-\u864e\u6797\u8def402\u53f7\u6842\u5df7"}, {"lat": 31.2971514986, "distance": 32567.082654329533, "lon": 121.3014031964, "id": 171, "address": "\uff08C\u7c7b\uff09\u9ad8\u79d1\u5546\u52a1\u4e2d\u5fc3"}, {"lat": 30.9794304075, "distance": 43676.7271718619, "lon": 121.8880802114, "id": 172, "address": "\uff08C\u7c7b\uff09\u6ef4\u6c34\u6e56-\u8475\u56ed\u519c\u5bb6\u4e50"}, {"lat": 31.0170895102, "distance": 22740.124561025532, "lon": 121.1948003685, "id": 174, "address": "\uff08C\u7c7b\uff09\u5bb6\u4e50\u798f\u4e09\u65b0\u8def\u5e97"}, {"lat": 31.2756267009, "distance": 29501.544032193033, "lon": 121.5408824801, "id": 175, "address": "\uff08\u5185\u90e8\u9650\u5236\uff09\u57ce\u5e02\u6982\u5ff5\u4ea7\u4e1a\u56ed"}, {"lat": 31.3394037193, "distance": 37809.47227163615, "lon": 121.5896626714, "id": 176, "address": "\uff08C\u7c7b\uff09\u5916\u9ad8\u6865-\u7687\u51a0\u5047\u65e5\u9152\u5e97"}, {"lat": 31.3174016837, "distance": 37371.32641305105, "lon": 121.6305817086, "id": 177, "address": "\uff08C\u7c7b\uff09\u6708\u4eae\u6e7e\u5546\u4e1a\u5e7f\u573a"}, {"lat": 31.3120648425, "distance": 35086.36198658747, "lon": 121.590892979, "id": 178, "address": "\uff08C\u7c7b\uff09\u5916\u9ad8\u6865-\u68ee\u5170\u5546\u90fd"}, {"lat": 31.3892081607, "distance": 40739.231167118014, "lon": 121.4963765224, "id": 179, "address": "\uff08C\u7c7b\uff09\u6c38\u6e05\u65b0\u6751"}, {"lat": 31.0541762983, "distance": 27733.10020244182, "lon": 121.7225085188, "id": 180, "address": "\uff08C\u7c7b\uff09\u4e0a\u6d77\u91ce\u751f\u52a8\u7269\u56ed"}, {"lat": 30.997993858, "distance": 5702.6085250091, "lon": 121.3836945509, "id": 181, "address": "\uff08C\u7c7b\uff09\u95f5\u884c- \u9526\u6c5f\u4e4b\u661f  \u4e0a\u6d77\u95f5\u884c\u5de5\u4e1a\u56ed\u533a \u6587\u4e95\u8def105"}, {"lat": 31.5264549787, "distance": 67287.70775099151, "lon": 121.8326554858, "id": 182, "address": "\uff08C\u7c7b\uff09\u5d07\u660e\u53bf-\u4e0a\u6d77\u5bc5\u4f73\u6c7d\u8f66\u670d\u52a1\u6709\u9650\u516c\u53f8"}, {"lat": 31.5264144952, "distance": 68397.09137535615, "lon": 121.8530636729, "id": 183, "address": "\uff08C\u7c7b\uff09\u5d07\u660e\u53bf-\u7b2c\u56db\u5de5\u4f5c\u7ad9\u529e\u516c\u697c"}, {"lat": 31.5222104768, "distance": 67390.03365427395, "lon": 121.8416900113, "id": 184, "address": "\uff08C\u7c7b\uff09\u5d07\u660e\u53bf-\u9648\u5bb6\u9547\u793e\u533a\u6587\u5316\u4e2d\u5fc3"}, {"lat": 31.2019115716, "distance": 32937.39616635298, "lon": 121.7122606796, "id": 185, "address": "\uff08C\u7c7b\uff09\u9a8f\u670b\u9152\u5e97\u534e\u590f\u4e1c\u8def\u5e97"}, {"lat": 31.3637284429, "distance": 37610.085564441506, "lon": 121.4684497197, "id": 186, "address": "(C\u7c7b\uff09\u5434\u6dde\u79d1\u6280\u56ed"}, {"lat": 31.0866558869, "distance": 6888.887175888666, "lon": 121.4143278625, "id": 187, "address": "\uff08C\u7c7b\uff09\u91d1\u90fd\u8def\u7f8e\u8f66\u5802"}, {"lat": 31.1477963737, "distance": 33812.22824653522, "lon": 121.7589457105, "id": 189, "address": "\uff08C\u7c7b\uff09\u4e3d\u8c6a\u5927\u9152\u5e97"}, {"lat": 30.9067616408, "distance": 23641.946674935967, "lon": 121.2285401805, "id": 191, "address": "\uff08\u5185\u90e8\u9650\u5236\uff09\u4e00\u7535\u4e34\u65f6\u8fd8\u8f66"}, {"lat": 31.0716259069, "distance": 5990.964450402322, "lon": 121.3982050924, "id": 193, "address": "\uff08B \u7c7b\uff09\u9526\u6c5f\u4e4b\u661f\u989b\u6865\u5e97\uff08\u9650\u505c2\u8f86\u8f66\uff09"}, {"lat": 31.0612332278, "distance": 12564.470080530808, "lon": 121.3075407847, "id": 195, "address": "\uff08C\u7c7b\uff09\u9526\u6c5f\u4e4b\u661f\u65b0\u6865\u5e97"}, {"lat": 30.9060383349, "distance": 45131.92357445118, "lon": 121.8850649469, "id": 196, "address": "\uff08C\u7c7b\uff09\u6d66\u4e1c\u65b0\u533a\u4e66\u9662\u9547\u5148\u884c\u533a\u8def"}, {"lat": 31.0279652069, "distance": 23376.310688470825, "lon": 121.1878420967, "id": 199, "address": "\uff08C\u7c7b\uff09\u534e\u4ead\u534a\u5c9b\u5496\u5561"}, {"lat": 31.0924760833, "distance": 13342.940409741725, "lon": 121.3159009469, "id": 200, "address": "\uff08C\u7c7b\uff09\u677e\u6c5f\u6f15\u6cb3\u6cfe\u5f00\u53d1\u533a"}, {"lat": 31.1864260725, "distance": 17913.005025601997, "lon": 121.4588809564, "id": 201, "address": "\uff08C\u7c7b\uff09\u9f99\u534e\u4e2d\u8def\u8239\u5382\u8def\u8def\u53e3 \u8fd1\u7eff\u5730\u4e2d\u5fc3"}, {"lat": 31.31741661, "distance": 35834.933150652534, "lon": 121.5960620928, "id": 202, "address": "\uff08C\u7c7b\uff09\u5916\u9ad8\u6865-\u68ee\u5170\u7f8e\u4f26"}, {"lat": 31.1947196021, "distance": 18668.428477805068, "lon": 121.430869059, "id": 203, "address": "\uff08C\u7c7b\uff09\u4ea4\u5927\u6167\u8c37\u79d1\u6280\u56ed"}, {"lat": 31.3345699624, "distance": 37652.811702854575, "lon": 121.5983328794, "id": 204, "address": "\uff08A\u7c7b\uff09\u5916\u9ad8\u6865DIG\u8fdb\u53e3\u5546\u54c1\u4e2d\u5fc34\u53f7\u697c"}, {"lat": 31.0311909884, "distance": 1323.6857482384185, "lon": 121.4461001969, "id": 205, "address": "(B\u7c7b\uff09\u95f5\u884c\u4ea4\u5927\u6728\u5170\u697c"}, {"lat": 31.1480123546, "distance": 15273.738747074642, "lon": 121.3576231168, "id": 206, "address": "\uff08B\u7c7b\uff09\u4ea4\u5927-\u4e03\u5b9d\u6821\u533a"}, {"lat": 31.1443682823, "distance": 13136.648600078304, "lon": 121.4472188653, "id": 209, "address": "\uff08C\u7c7b\uff09\u683c\u5170\u4e91\u5929\u9152\u5e97"}, {"lat": 31.1856542877, "distance": 17676.004429269196, "lon": 121.4412794921, "id": 210, "address": "\uff08C\u6d4b\u5149\u542f\u6587\u5316\u5e7f\u573a\uff09"}, {"lat": 31.1415161995, "distance": 12836.015982087438, "lon": 121.4486385164, "id": 211, "address": "\uff08C\u7c7b\uff09\u6c47\u8fbe\u5546\u52a1\u56ed"}, {"lat": 31.1834654094, "distance": 17420.575870929337, "lon": 121.4288555437, "id": 212, "address": "\uff08C\u6d4b\u5149\u542f\u57ce\u5730\u4e0b\u505c\u8f66\u573a\uff09"}, {"lat": 31.1735401594, "distance": 16312.102376253013, "lon": 121.4330493267, "id": 213, "address": "\uff08C\u7c7b\uff09\u6c47\u9633\u5e7f\u573a"}, {"lat": 31.1747127839, "distance": 16448.23039274318, "lon": 121.428604066, "id": 220, "address": "\uff08C\u7c7b\uff09\u7530\u6797\u4f53\u80b2\u4e2d\u5fc3"}, {"lat": 30.9936711194, "distance": 6603.195820270984, "lon": 121.3756985618, "id": 225, "address": "\uff08C\u7c7b\uff09\u6606\u9633\u8def168\u53f7\u534e\u54c8\u517b\u8001\u9662"}, {"lat": 31.2083472885, "distance": 20341.929313404416, "lon": 121.4064652097, "id": 227, "address": "\uff08C\u7c7b\uff09\u5929\u5c71\u4e8c\u6751"}, {"lat": 31.0082365239, "distance": 2283.6574350174697, "lon": 121.4230212423, "id": 228, "address": "\uff08C\u7c7b\uff09IU\u9152\u5e97"}, {"lat": 31.1982791783, "distance": 19126.78507922037, "lon": 121.4495690542, "id": 230, "address": "\uff08C\u7c7b\uff09\u9752\u677e\u57ce\u5927\u9152\u5e97"}, {"lat": 31.1947489896, "distance": 18670.684049714615, "lon": 121.4321111949, "id": 231, "address": "\uff08C\u7c7b\uff09\u9526\u6c5f\u4e4b\u661f\u8679\u6865\u5e97"}, {"lat": 30.9405247951, "distance": 44834.09614043081, "lon": 121.8925746791, "id": 233, "address": "\uff08C\u7c7b\uff09\u4e66\u9662\u4eba\u5bb6\u519c\u5bb6\u4e50 - \u4e34\u65f6\u8fd8\u8f66\u7f51\u70b9"}, {"lat": 31.209279629, "distance": 21071.295925039405, "lon": 121.3733077184, "id": 234, "address": "\uff08C\u7c7b\uff09\u6c38\u99a8\u5c0f\u533a"}, {"lat": 31.23037541, "distance": 24674.242408884398, "lon": 121.5364353498, "id": 236, "address": "\uff08C\u7c7b\uff09\u6e90\u6df1\u4f53\u80b2\u9986"}, {"lat": 30.8819908798, "distance": 49151.863569801615, "lon": 121.9201531086, "id": 237, "address": "(C\u7c7b\uff09\u9a6c\u6a31\u4e39\u8def65\u53f7"}, {"lat": 31.3411517773, "distance": 35614.18976154868, "lon": 121.5051530954, "id": 238, "address": "\uff08C\u7c7b\uff09\u6e7e\u8c37\u79d1\u6280\u56ed"}, {"lat": 31.1684744009, "distance": 16273.253487455995, "lon": 121.3901287946, "id": 239, "address": "\uff08C\u7c7b\uff09\u5b9c\u5c71\u8def1728\u53f7"}, {"lat": 31.082994367, "distance": 9313.487683276342, "lon": 121.5057138793, "id": 242, "address": "\uff08C\u7c7b\uff09\u6d66\u6c5f\u57ce\u5e02\u751f\u6d3b\u5e7f\u573a"}, {"lat": 31.0844529319, "distance": 9790.836070196465, "lon": 121.5108976912, "id": 243, "address": "\uff08C\u7c7b\uff09\u4e0a\u6d77\u666e\u661f\u6c7d\u8f66\u7528\u54c1\u57ce"}, {"lat": 31.07271775, "distance": 12091.573246792865, "lon": 121.5482485594, "id": 244, "address": "\uff08C\u7c7b\uff09\u53ec\u7a3c\u697c"}, {"lat": 31.2176151556, "distance": 21485.082692536707, "lon": 121.4689740421, "id": 245, "address": "\uff08C\u4e34\u65f6\u4f9b\u5185\u90e8\u5458\u5de5\uff09\u590d\u5174\u516c\u56ed"}, {"lat": 30.9010751895, "distance": 37966.28877314108, "lon": 121.8033561746, "id": 246, "address": "\uff08C\u4e34\u65f6\uff09\u4e7e\u8000\u4e1c\u6e2f"}, {"lat": 31.3379402168, "distance": 34592.74329496099, "lon": 121.4319551838, "id": 250, "address": "\uff08C\u7c7b\uff09\u5353\u8d8a\u65f6\u4ee3\u5e7f\u573a"}, {"lat": 30.9428442762, "distance": 9627.466141368759, "lon": 121.4576587323, "id": 252, "address": "\uff08C\u7c7b\u4e34\u65f6\uff09\u5949\u6d66\u5927\u53a6"}, {"lat": 31.0173529001, "distance": 1238.3007962045863, "lon": 121.4263667147, "id": 254, "address": "\uff08C\u7c7b\u4e34\u65f6\uff09\u4ea4\u5927\u65b0\u6751"}, {"lat": 31.012233513, "distance": 1850.8492559669244, "lon": 121.4238587923, "id": 255, "address": "\uff08C\u7c7b\u4e34\u65f6\uff09\u8398\u6f6e\u5bb6\u5c45"}, {"lat": 31.1724246815, "distance": 16280.501273543628, "lon": 121.4149730168, "id": 256, "address": "\uff08c\u7c7b\u4e34\u65f6\uff09\u534e\u946b\u4e2d\u5fc3"}, {"lat": 30.8908483129, "distance": 15699.992087181443, "lon": 121.3888966359, "id": 258, "address": "\uff08C\u7c7b\uff09\u4e50\u7530\u519c\u5bb6\u4e50"}, {"lat": 31.1913808301, "distance": 23195.790308996482, "lon": 121.5829374213, "id": 259, "address": "(C\u7c7b\u4e34\u65f6\u5458\u5de5\u81ea\u7528)\u901a\u7528\u7535\u6c14\u4e2d\u56fd\u79d1\u6280\u56ed"}, {"lat": 31.1868566855, "distance": 20286.1343947247, "lon": 121.5355136917, "id": 261, "address": "\uff08C\u7c7b\uff09\u5c71\u59c6\u4f1a\u5458\u5e97-\u4e0b\u5357\u8def"}, {"lat": 31.0445942995, "distance": 2913.8594109421147, "lon": 121.4106722866, "id": 262, "address": "(C\u7c7b\u4e34\u65f6)\u5317\u6865\u5730\u94c1\u7ad9"}, {"lat": 31.1852018877, "distance": 18945.073370769405, "lon": 121.506576583, "id": 263, "address": "(C\u7c7b)\u9ad8\u79d1\u897f\u8def\u5730\u94c1\u7ad9"}, {"lat": 31.1188311571, "distance": 11783.848846004637, "lon": 121.371735906, "id": 264, "address": "(C\u7c7b)\u4e03\u8398\u8def\u4e50\u8d2d\u8d85\u5e02"}, {"lat": 31.1409320566, "distance": 14012.948982573673, "lon": 121.3706700571, "id": 265, "address": "(C\u7c7b)\u95f5\u884c\u4f53\u80b2\u9986"}, {"lat": 30.6116454289, "distance": 78362.18506145135, "lon": 122.0962379072, "id": 266, "address": "\uff08C\u7c7b\uff09\u6d0b\u5c71\u98ce\u666f\u533a-\u4e34\u6e2f"}]